header:
  stamp:
    sec: 1620637991
    nanosec: 773067409
  frame_id: ''
name:
- base_link_1
- link_1_2
- link_2_3
position:
- -0.0006518518518518519
- -0.00162962962962963
- -0.0006518518518518519
velocity: []
effort: []
---
header:
  stamp:
    sec: 1620637991
    nanosec: 888866757
  frame_id: ''
name:
- base_link_1
- link_1_2
- link_2_3
position:
- -0.0025481481481481483
- -0.006370370370370372
- -0.0025481481481481483
velocity: []
effort: []
---
header:
  stamp:
    sec: 1620637991
    nanosec: 993095058
  frame_id: ''
name:
- base_link_1
- link_1_2
- link_2_3
position:
- -0.005600000000000002
- -0.014000000000000002
- -0.005600000000000002
velocity: []
effort: []
---
header:
  stamp:
    sec: 1620637992
    nanosec: 119627465
  frame_id: ''
name:
- base_link_1
- link_1_2
- link_2_3
position:
- -0.00971851851851852
- -0.024296296296296302
- -0.00971851851851852
velocity: []
effort: []
---
header:
  stamp:
    sec: 1620637992
    nanosec: 240753884
  frame_id: ''
name:
- base_link_1
- link_1_2
- link_2_3
position:
- -0.014814814814814815
- -0.037037037037037035
- -0.014814814814814815
velocity: []
effort: []
---
header:
  stamp:
    sec: 1620637992
    nanosec: 352023898
  frame_id: ''
name:
- base_link_1
- link_1_2
- link_2_3
position:
- -0.020800000000000006
- -0.052000000000000005
- -0.020800000000000006
velocity: []
effort: []
---
header:
  stamp:
    sec: 1620637992
    nanosec: 472940033
  frame_id: ''
name:
- base_link_1
- link_1_2
- link_2_3
position:
- -0.02758518518518519
- -0.06896296296296298
- -0.02758518518518519
velocity: []
effort: []
---
header:
  stamp:
    sec: 1620637992
    nanosec: 586195876
  frame_id: ''
name:
- base_link_1
- link_1_2
- link_2_3
position:
- -0.035081481481481484
- -0.08770370370370373
- -0.035081481481481484
velocity: []
effort: []
---
header:
  stamp:
    sec: 1620637992
    nanosec: 696098986
  frame_id: ''
name:
- base_link_1
- link_1_2
- link_2_3
position:
- -0.043199999999999995
- -0.10800000000000001
- -0.043199999999999995
velocity: []
effort: []
---
header:
  stamp:
    sec: 1620637992
    nanosec: 802464443
  frame_id: ''
name:
- base_link_1
- link_1_2
- link_2_3
position:
- -0.05185185185185185
- -0.12962962962962962
- -0.05185185185185185
velocity: []
effort: []
---
header:
  stamp:
    sec: 1620637992
    nanosec: 916440733
  frame_id: ''
name:
- base_link_1
- link_1_2
- link_2_3
position:
- -0.060948148148148154
- -0.15237037037037038
- -0.060948148148148154
velocity: []
effort: []
---
header:
  stamp:
    sec: 1620637993
    nanosec: 27449968
  frame_id: ''
name:
- base_link_1
- link_1_2
- link_2_3
position:
- -0.07040000000000002
- -0.17600000000000002
- -0.07040000000000002
velocity: []
effort: []
---
header:
  stamp:
    sec: 1620637993
    nanosec: 137654461
  frame_id: ''
name:
- base_link_1
- link_1_2
- link_2_3
position:
- -0.08011851851851853
- -0.2002962962962963
- -0.08011851851851853
velocity: []
effort: []
---
header:
  stamp:
    sec: 1620637993
    nanosec: 247779313
  frame_id: ''
name:
- base_link_1
- link_1_2
- link_2_3
position:
- -0.09001481481481483
- -0.22503703703703706
- -0.09001481481481483
velocity: []
effort: []
---
header:
  stamp:
    sec: 1620637993
    nanosec: 360856995
  frame_id: ''
name:
- base_link_1
- link_1_2
- link_2_3
position:
- -0.09999999999999999
- -0.25
- -0.09999999999999999
velocity: []
effort: []
---
header:
  stamp:
    sec: 1620637993
    nanosec: 582902922
  frame_id: ''
name:
- base_link_1
- link_1_2
- link_2_3
position:
- -0.1198814814814815
- -0.29970370370370375
- -0.1198814814814815
velocity: []
effort: []
---
header:
  stamp:
    sec: 1620637993
    nanosec: 694931799
  frame_id: ''
name:
- base_link_1
- link_1_2
- link_2_3
position:
- -0.1296
- -0.324
- -0.1296
velocity: []
effort: []
---
header:
  stamp:
    sec: 1620637993
    nanosec: 811047467
  frame_id: ''
name:
- base_link_1
- link_1_2
- link_2_3
position:
- -0.13905185185185187
- -0.3476296296296296
- -0.13905185185185187
velocity: []
effort: []
---
header:
  stamp:
    sec: 1620637993
    nanosec: 929916429
  frame_id: ''
name:
- base_link_1
- link_1_2
- link_2_3
position:
- -0.14814814814814814
- -0.37037037037037035
- -0.14814814814814814
velocity: []
effort: []
---
header:
  stamp:
    sec: 1620637994
    nanosec: 37421498
  frame_id: ''
name:
- base_link_1
- link_1_2
- link_2_3
position:
- -0.15679999999999997
- -0.39199999999999996
- -0.15679999999999997
velocity: []
effort: []
---
header:
  stamp:
    sec: 1620637994
    nanosec: 142940175
  frame_id: ''
name:
- base_link_1
- link_1_2
- link_2_3
position:
- -0.16491851851851852
- -0.41229629629629627
- -0.16491851851851852
velocity: []
effort: []
---
header:
  stamp:
    sec: 1620637994
    nanosec: 251904228
  frame_id: ''
name:
- base_link_1
- link_1_2
- link_2_3
position:
- -0.17241481481481483
- -0.4310370370370371
- -0.17241481481481483
velocity: []
effort: []
---
header:
  stamp:
    sec: 1620637994
    nanosec: 359736917
  frame_id: ''
name:
- base_link_1
- link_1_2
- link_2_3
position:
- -0.1792
- -0.44799999999999995
- -0.1792
velocity: []
effort: []
---
header:
  stamp:
    sec: 1620637994
    nanosec: 494250311
  frame_id: ''
name:
- base_link_1
- link_1_2
- link_2_3
position:
- -0.1851851851851852
- -0.4629629629629628
- -0.1851851851851852
velocity: []
effort: []
---
header:
  stamp:
    sec: 1620637994
    nanosec: 610800742
  frame_id: ''
name:
- base_link_1
- link_1_2
- link_2_3
position:
- -0.1902814814814815
- -0.47570370370370374
- -0.1902814814814815
velocity: []
effort: []
---
header:
  stamp:
    sec: 1620637994
    nanosec: 714680150
  frame_id: ''
name:
- base_link_1
- link_1_2
- link_2_3
position:
- -0.19439999999999996
- -0.486
- -0.19439999999999996
velocity: []
effort: []
---
header:
  stamp:
    sec: 1620637994
    nanosec: 821547908
  frame_id: ''
name:
- base_link_1
- link_1_2
- link_2_3
position:
- -0.19745185185185182
- -0.49362962962962964
- -0.19745185185185182
velocity: []
effort: []
---
header:
  stamp:
    sec: 1620637994
    nanosec: 927637209
  frame_id: ''
name:
- base_link_1
- link_1_2
- link_2_3
position:
- -0.19934814814814805
- -0.49837037037037024
- -0.19934814814814805
velocity: []
effort: []
---
header:
  stamp:
    sec: 1620637995
    nanosec: 41575592
  frame_id: ''
name:
- base_link_1
- link_1_2
- link_2_3
position:
- -0.19999999999999996
- -0.5
- -0.19999999999999996
velocity: []
effort: []
---
header:
  stamp:
    sec: 1620638045
    nanosec: 901556645
  frame_id: ''
name:
- base_link_1
- link_1_2
- link_2_3
position:
- -0.0006518518518518519
- -0.00162962962962963
- -0.0006518518518518519
velocity: []
effort: []
---
header:
  stamp:
    sec: 1620638046
    nanosec: 10369357
  frame_id: ''
name:
- base_link_1
- link_1_2
- link_2_3
position:
- -0.0025481481481481483
- -0.006370370370370372
- -0.0025481481481481483
velocity: []
effort: []
---
header:
  stamp:
    sec: 1620638046
    nanosec: 125263140
  frame_id: ''
name:
- base_link_1
- link_1_2
- link_2_3
position:
- -0.005600000000000002
- -0.014000000000000002
- -0.005600000000000002
velocity: []
effort: []
---
header:
  stamp:
    sec: 1620638046
    nanosec: 234324458
  frame_id: ''
name:
- base_link_1
- link_1_2
- link_2_3
position:
- -0.00971851851851852
- -0.024296296296296302
- -0.00971851851851852
velocity: []
effort: []
---
header:
  stamp:
    sec: 1620638046
    nanosec: 343243159
  frame_id: ''
name:
- base_link_1
- link_1_2
- link_2_3
position:
- -0.014814814814814815
- -0.037037037037037035
- -0.014814814814814815
velocity: []
effort: []
---
header:
  stamp:
    sec: 1620638046
    nanosec: 450048213
  frame_id: ''
name:
- base_link_1
- link_1_2
- link_2_3
position:
- -0.020800000000000006
- -0.052000000000000005
- -0.020800000000000006
velocity: []
effort: []
---
header:
  stamp:
    sec: 1620638046
    nanosec: 557004878
  frame_id: ''
name:
- base_link_1
- link_1_2
- link_2_3
position:
- -0.02758518518518519
- -0.06896296296296298
- -0.02758518518518519
velocity: []
effort: []
---
header:
  stamp:
    sec: 1620638046
    nanosec: 661688670
  frame_id: ''
name:
- base_link_1
- link_1_2
- link_2_3
position:
- -0.035081481481481484
- -0.08770370370370373
- -0.035081481481481484
velocity: []
effort: []
---
header:
  stamp:
    sec: 1620638046
    nanosec: 777272759
  frame_id: ''
name:
- base_link_1
- link_1_2
- link_2_3
position:
- -0.043199999999999995
- -0.10800000000000001
- -0.043199999999999995
velocity: []
effort: []
---
header:
  stamp:
    sec: 1620638046
    nanosec: 886907330
  frame_id: ''
name:
- base_link_1
- link_1_2
- link_2_3
position:
- -0.05185185185185185
- -0.12962962962962962
- -0.05185185185185185
velocity: []
effort: []
---
header:
  stamp:
    sec: 1620638047
    nanosec: 5532383
  frame_id: ''
name:
- base_link_1
- link_1_2
- link_2_3
position:
- -0.060948148148148154
- -0.15237037037037038
- -0.060948148148148154
velocity: []
effort: []
---
header:
  stamp:
    sec: 1620638047
    nanosec: 115052450
  frame_id: ''
name:
- base_link_1
- link_1_2
- link_2_3
position:
- -0.07040000000000002
- -0.17600000000000002
- -0.07040000000000002
velocity: []
effort: []
---
header:
  stamp:
    sec: 1620638047
    nanosec: 220158885
  frame_id: ''
name:
- base_link_1
- link_1_2
- link_2_3
position:
- -0.08011851851851853
- -0.2002962962962963
- -0.08011851851851853
velocity: []
effort: []
---
header:
  stamp:
    sec: 1620638047
    nanosec: 326943109
  frame_id: ''
name:
- base_link_1
- link_1_2
- link_2_3
position:
- -0.09001481481481483
- -0.22503703703703706
- -0.09001481481481483
velocity: []
effort: []
---
header:
  stamp:
    sec: 1620638047
    nanosec: 436110068
  frame_id: ''
name:
- base_link_1
- link_1_2
- link_2_3
position:
- -0.09999999999999999
- -0.25
- -0.09999999999999999
velocity: []
effort: []
---
header:
  stamp:
    sec: 1620638047
    nanosec: 553402159
  frame_id: ''
name:
- base_link_1
- link_1_2
- link_2_3
position:
- -0.10998518518518519
- -0.274962962962963
- -0.10998518518518519
velocity: []
effort: []
---
header:
  stamp:
    sec: 1620638047
    nanosec: 658903394
  frame_id: ''
name:
- base_link_1
- link_1_2
- link_2_3
position:
- -0.1198814814814815
- -0.29970370370370375
- -0.1198814814814815
velocity: []
effort: []
---
header:
  stamp:
    sec: 1620638047
    nanosec: 767787115
  frame_id: ''
name:
- base_link_1
- link_1_2
- link_2_3
position:
- -0.1296
- -0.324
- -0.1296
velocity: []
effort: []
---
header:
  stamp:
    sec: 1620638047
    nanosec: 874062545
  frame_id: ''
name:
- base_link_1
- link_1_2
- link_2_3
position:
- -0.13905185185185187
- -0.3476296296296296
- -0.13905185185185187
velocity: []
effort: []
---
header:
  stamp:
    sec: 1620638047
    nanosec: 981836909
  frame_id: ''
name:
- base_link_1
- link_1_2
- link_2_3
position:
- -0.14814814814814814
- -0.37037037037037035
- -0.14814814814814814
velocity: []
effort: []
---
header:
  stamp:
    sec: 1620638048
    nanosec: 89474678
  frame_id: ''
name:
- base_link_1
- link_1_2
- link_2_3
position:
- -0.15679999999999997
- -0.39199999999999996
- -0.15679999999999997
velocity: []
effort: []
---
header:
  stamp:
    sec: 1620638048
    nanosec: 196311476
  frame_id: ''
name:
- base_link_1
- link_1_2
- link_2_3
position:
- -0.16491851851851852
- -0.41229629629629627
- -0.16491851851851852
velocity: []
effort: []
---
header:
  stamp:
    sec: 1620638048
    nanosec: 303139647
  frame_id: ''
name:
- base_link_1
- link_1_2
- link_2_3
position:
- -0.17241481481481483
- -0.4310370370370371
- -0.17241481481481483
velocity: []
effort: []
---
header:
  stamp:
    sec: 1620638048
    nanosec: 410345149
  frame_id: ''
name:
- base_link_1
- link_1_2
- link_2_3
position:
- -0.1792
- -0.44799999999999995
- -0.1792
velocity: []
effort: []
---
header:
  stamp:
    sec: 1620638048
    nanosec: 517295304
  frame_id: ''
name:
- base_link_1
- link_1_2
- link_2_3
position:
- -0.1851851851851852
- -0.4629629629629628
- -0.1851851851851852
velocity: []
effort: []
---
header:
  stamp:
    sec: 1620638048
    nanosec: 624097147
  frame_id: ''
name:
- base_link_1
- link_1_2
- link_2_3
position:
- -0.1902814814814815
- -0.47570370370370374
- -0.1902814814814815
velocity: []
effort: []
---
header:
  stamp:
    sec: 1620638048
    nanosec: 730424709
  frame_id: ''
name:
- base_link_1
- link_1_2
- link_2_3
position:
- -0.19439999999999996
- -0.486
- -0.19439999999999996
velocity: []
effort: []
---
header:
  stamp:
    sec: 1620638048
    nanosec: 836189945
  frame_id: ''
name:
- base_link_1
- link_1_2
- link_2_3
position:
- -0.19745185185185182
- -0.49362962962962964
- -0.19745185185185182
velocity: []
effort: []
---
header:
  stamp:
    sec: 1620638048
    nanosec: 942417671
  frame_id: ''
name:
- base_link_1
- link_1_2
- link_2_3
position:
- -0.19934814814814805
- -0.49837037037037024
- -0.19934814814814805
velocity: []
effort: []
---
header:
  stamp:
    sec: 1620638049
    nanosec: 54334714
  frame_id: ''
name:
- base_link_1
- link_1_2
- link_2_3
position:
- -0.19999999999999996
- -0.5
- -0.19999999999999996
velocity: []
effort: []
---
